[
  {
    "id": "13",
    "name": "Urban Bean Roasters",
    "slug": "urban-bean-roasters",
    "category": "Cafe",
    "rating": 4.6,
    "priceLevel": 2,
    "image": "https://images.unsplash.com/photo-1495474472287-4d71bcdd2085?w=800&h=600&fit=crop",
    "description": "Small-batch roasted coffee with a modern industrial vibe.",
    "address": "112 Coffee Street, Downtown",
    "phone": "(555) 111-2233",
    "hours": "Mon-Sun: 7am-8pm",
    "features": ["WiFi", "Single Origin", "Study Friendly", "Takeout"]
  },
  {
    "id": "15",
    "name": "Blue Wave Sushi",
    "slug": "blue-wave-sushi",
    "category": "Restaurant",
    "rating": 4.8,
    "priceLevel": 3,
    "image": "https://images.unsplash.com/photo-1553621042-f6e147245754?w=800&h=600&fit=crop",
    "description": "Fresh sushi and sashimi crafted by experienced chefs.",
    "address": "45 Ocean Drive, Harbor Area",
    "phone": "(555) 333-4455",
    "hours": "Tue-Sun: 5pm-11pm",
    "features": ["Sushi Bar", "Fresh Fish", "Reservations", "Omakase"]
  },
  {
    "id": "16",
    "name": "Rustic Table",
    "slug": "rustic-table",
    "category": "Restaurant",
    "rating": 4.5,
    "priceLevel": 2,
    "image": "https://images.unsplash.com/photo-1528605248644-14dd04022da1?w=800&h=600&fit=crop",
    "description": "Farm-to-table dining with seasonal local ingredients.",
    "address": "78 Green Valley Road, Uptown",
    "phone": "(555) 444-5566",
    "hours": "Mon-Sat: 11am-9pm",
    "features": ["Organic", "Local Produce", "Healthy Options", "Dine-in"]
  },
  {
    "id": "17",
    "name": "Midnight Owl Bar",
    "slug": "midnight-owl-bar",
    "category": "Bar",
    "rating": 4.6,
    "priceLevel": 2,
    "image": "https://images.unsplash.com/photo-1514933651103-005eec06c04b?w=800&h=600&fit=crop",
    "description": "Late-night cocktails, moody lighting, and relaxed music.",
    "address": "9 Nightlife Avenue, Downtown",
    "phone": "(555) 555-6677",
    "hours": "Daily: 6pm-2am",
    "features": ["Cocktails", "Late Night", "Live DJ", "Happy Hour"]
  },
  {
    "id": "18",
    "name": "Green Leaf Vegan",
    "slug": "green-leaf-vegan",
    "category": "Restaurant",
    "rating": 4.9,
    "priceLevel": 2,
    "image": "https://images.unsplash.com/photo-1543353071-873f17a7a088?w=800&h=600&fit=crop",
    "description": "Creative plant-based meals made with fresh ingredients.",
    "address": "302 Wellness Blvd, City Center",
    "phone": "(555) 666-7788",
    "hours": "Mon-Sun: 10am-9pm",
    "features": ["Vegan", "Healthy", "Gluten-Free", "Eco Friendly"]
  },
  {
    "id": "20",
    "name": "Sweet Cravings Dessert Bar",
    "slug": "sweet-cravings-dessert-bar",
    "category": "Bakery",
    "rating": 4.8,
    "priceLevel": 2,
    "image": "https://images.unsplash.com/photo-1499636136210-6f4ee915583e?w=800&h=600&fit=crop",
    "description": "Decadent desserts, waffles, and milkshakes.",
    "address": "67 Sugar Lane, Downtown",
    "phone": "(555) 888-9900",
    "hours": "Mon-Sun: 2pm-11pm",
    "features": ["Desserts", "Late Night", "Takeaway", "Family Friendly"]
  },
  {
    "id": "21",
    "name": "Harbor Fish & Chips",
    "slug": "harbor-fish-and-chips",
    "category": "Restaurant",
    "rating": 4.5,
    "priceLevel": 2,
    "image": "https://images.unsplash.com/photo-1600891964599-f61ba0e24092?w=800&h=600&fit=crop",
    "description": "Classic fish and chips with a seaside touch.",
    "address": "19 Dockside Road, Harbor",
    "phone": "(555) 101-2020",
    "hours": "Mon-Sun: 12pm-9pm",
    "features": ["Seafood", "Takeout", "Family Friendly", "Casual Dining"]
  },
  {
    "id": "25",
    "name": "Daily Grind Coffee",
    "slug": "daily-grind-coffee",
    "category": "Cafe",
    "rating": 4.4,
    "priceLevel": 1,
    "image": "https://images.unsplash.com/photo-1498804103079-a6351b050096?w=800&h=600&fit=crop",
    "description": "Quick coffee stop for your daily caffeine fix.",
    "address": "12 Workday Street, Business District",
    "phone": "(555) 505-6060",
    "hours": "Mon-Fri: 6am-5pm",
    "features": ["Quick Service", "Takeaway", "Espresso", "Affordable"]
  },
  {
    "id": "26",
    "name": "Mama's Home Kitchen",
    "slug": "mamas-home-kitchen",
    "category": "Restaurant",
    "rating": 4.8,
    "priceLevel": 2,
    "image": "https://images.unsplash.com/photo-1606787366850-de6330128bfc?w=800&h=600&fit=crop",
    "description": "Comfort food inspired by homemade family recipes.",
    "address": "89 Heritage Road, Suburbs",
    "phone": "(555) 606-7070",
    "hours": "Mon-Sun: 11am-9pm",
    "features": ["Comfort Food", "Family Dining", "Homestyle", "Takeout"]
  },
  {
    "id": "27",
    "name": "Street Wok Express",
    "slug": "street-wok-express",
    "category": "Food Truck",
    "rating": 4.5,
    "priceLevel": 1,
    "image": "https://images.unsplash.com/photo-1540189549336-e6e99c3679fe?w=800&h=600&fit=crop",
    "description": "Fast and flavorful Asian street food.",
    "address": "Market Square, Food Truck Zone",
    "phone": "(555) 707-8080",
    "hours": "Mon-Sat: 12pm-8pm",
    "features": ["Street Food", "Fast Service", "Spicy Options", "Affordable"]
  }
]
